year,month,day,state,city,Latitude,Longitude,location,summary,attack type
iyear,imonth,iday,provstate,city,latitude,longitude,location,summary,attacktype1_txt
2017,4,8,Jammu and Kashmir,Achabal,33.683363,75.219855,,,Armed Assault
2017,4,8,Jammu and Kashmir,Achabal,33.685391,75.221112,,,Bombing/Explosion
2017,1,20,Odisha,Adaba,18.821768,84.252903,"The attack took place in the Imphal West district, Manipur, India.","05/24/2009: On Sunday, in the Imphal West district, Manipur, India, assailants threw a hand grenade at a local councilor’s residence, causing no casualties or damages. No group claimed responsibility.",Bombing/Explosion
2017,3,18,Uttar Pradesh,Agra,27.159083,77.990667,,"01/26/2015: An explosive device was discovered and safely defused near a transformer in Hattigarh area, Assam state, India. No group claimed responsibility for the incident; however, sources attributed the attack to the United Liberation Front of Assam (ULFA).",Bombing/Explosion
2017,3,18,Uttar Pradesh,Agra,27.15597,77.986732,The incident occurred in Sant Kabir Nagar district.,"03/28/2017: An explosive device detonated near railway tracks in Khalialbad, Uttar Pradesh, India. A Nepali civilian was injured in the blast. In addition, three explosive devices were discovered and defused at the scene. No group claimed responsibility for the incident.",Bombing/Explosion
2017,3,7,Manipur,Aishi,25.116667,94.366667,,,Assassination
2017,7,24,Jammu and Kashmir,Ajas,34.332737,74.677444,,,Armed Assault
2017,12,6,Jammu and Kashmir,Ajas,34.344668,74.67834,,,Bombing/Explosion
2017,10,4,Jammu and Kashmir,Akhnoor,32.899524,74.742485,,,Unarmed Assault
2017,1,2,Tamil Nadu,Alangulam,8.864636,77.496008,,,Bombing/Explosion
2017,6,26,West Bengal,Algara,27.117166,88.583706,The attack took place near an electricity tower of the Damodar Valley Corporation in the Dhanbhumghar area of East Singhbhum.,"03/18/2010: On Thursday, in the Dhanbhumghar area of East Singhbhum, Jharkhand, India, suspected Communist Party of India - Maoist (CPI-Maoist) militants blew up an electricity tower of the Damodar Valley Corporation. No casualties were reported in the attack. No group claimed responsibility, although it was widely believed the Communist Party of India-Maoist (CPI-Maoist) was responsible.",Bombing/Explosion
2017,2,5,Telangana,Alligudem,17.806766,81.157827,The incident occurred near the border town of Damra in the Goalpara district.,"05/12/2012: An explosive device targeting security forces was discovered and defused on a bridge near Damra village, Goalpara district, Assam state, India. No group claimed responsibility for the attack; however, officials suspected the device was planted by the Garo National Liberation Army (GNLA).",Bombing/Explosion
2017,11,6,Telangana,Alubaka,18.230868,80.70489,,,Hostage Taking (Kidnapping)
2017,5,8,Jammu and Kashmir,Aman Setu,34.096147,74.033054,The incident occurred in the Bemina area of the city.,"10/04/2016: Assailants threw an incendiary device at the school board of education building in Sopore, Jammu and Kashmir, India. There were no reported casualties in the attack. No group claimed responsibility for the incident.",Facility/Infrastructure Attack
2017,8,10,Uttar Pradesh,Amethi,26.154054,81.814238,,"06/30/2016: An explosive device detonated at Bhairab Ganguly College in Belgharia, West Bengal, India. There were no reported casualties in the blast. No group claimed responsibility for the incident.",Bombing/Explosion
2017,5,17,Jharkhand,Amjharia,23.618734,84.765502,,,Unknown
2017,10,30,Punjab,Amritsar,31.633078,74.878288,,,Assassination
2017,5,19,Jharkhand,Amwatiker,23.764425,84.341019,The attack took place at residence of Manipur Chief Minister Okram Ibobi Singh in Imphal.,"09/01/2008: On Monday, People's Revolutionary Party of Kangleipak (PREPAK) militants attacked the residence of a Chief Minister in Imphal, with a lethod bomb that exploded inside the residence compound. PREPAK claimed responsibility for the attack saying that it was a warning to the Chief Minister to rectify his misdeeds. No casualties were reported.",Bombing/Explosion
2017,5,29,Bihar,Anandpur,24.978914,86.305397,In Latehar District,"01/06/2013: Assailants disfigured a Central Reserve Police Force (CRPF) member in Latehar district, Jharkhand, India. The assailants cut out the victim's eyes and tongue before killing him. Officials attribute the incident to Maoists.",Armed Assault
2017,4,28,Jammu and Kashmir,Anantnag,33.732216,75.157913,,,Armed Assault
2017,8,28,Jammu and Kashmir,Anantnag,33.732216,75.157913,,,Armed Assault
2017,9,9,Jammu and Kashmir,Anantnag,33.732216,75.157913,,,Armed Assault
2017,11,2,Jammu and Kashmir,Anantnag,33.732216,75.157913,,,Armed Assault
2017,11,9,Jammu and Kashmir,Anantnag,33.732216,75.157913,,,Armed Assault
2017,4,10,Jammu and Kashmir,Anantnag,33.732216,75.157913,,,Assassination
2017,8,21,Jammu and Kashmir,Anantnag,33.732216,75.157913,,,Assassination
2017,11,10,Jammu and Kashmir,Anantnag,33.732216,75.157913,,,Assassination
2017,7,3,Jammu and Kashmir,Anantnag,33.732216,75.157913,,,Bombing/Explosion
2017,4,13,Jammu and Kashmir,Anantnag district,33.731126,75.148701,,,Armed Assault
2017,6,13,Jammu and Kashmir,Anchidora,33.732216,75.157913,,,Armed Assault
2017,12,17,Odisha,Andrahal,18.464464,82.355801,The incident occurred near Dhansa.,"09/03/2016: Security forces discovered and defused an explosive device near Dhanta, Bihar, India. No group claimed responsibility for the incident.",Bombing/Explosion
2017,1,23,Chhattisgarh,Annaram,18.633597,80.379766,,"09/20/2013: Assailants detonated explosives at a Public Works Department (PWD) building in Parasi village, Bihar state, India. There were no reported casualties; however, the targeted building was damaged in the attack. This was one of two related incidents that occurred in Jamui district on the same day. This incident drew Special Task Force (STF) first responders to the scene, where they were then attacked. No group claimed responsibility; however, authorities attributed the attacks to Maoists.",Bombing/Explosion
2017,12,4,Chhattisgarh,Antagarh,20.098706,81.158774,,,Armed Assault
2017,10,2,Chhattisgarh,Antagarh,20.098476,81.15959,,"07/03/2014: Assailants kidnapped a grocery store owner in Kharkutta town, Meghalaya state, India. The victim escaped on July 5, 2014. No group claimed responsibility for the incident.",Hostage Taking (Kidnapping)
2017,9,10,Chhattisgarh,Aranpur,18.49625,81.294556,,"03/11/2000: Nine persons, including eight on-duty Indian soldiers, were killed in a land mine explosion in Bardhia, India. The People's War Group was blamed for the attack.",Bombing/Explosion
2017,3,31,Karnataka,Arechakanahalli,12.470556,77.001667,,"12/08/2003: A bag exploded minutes after being handed over to a hardware shop owner in Makum town, Assam state, India, killing Hindi-speaking bystanders.",Bombing/Explosion
2017,7,28,Jammu and Kashmir,Arigam,33.939903,75.099791,,,Armed Assault
2017,7,8,Jammu and Kashmir,Aripal,34.02173,75.072384,,,Bombing/Explosion
2017,1,1,Kerala,Aroor,9.873252,76.302937,The incident occurred on Modinagar road.,"06/23/2016: Assailants shot and killed Sukhbeer, a police sub-inspector, in Hapur, Uttar Pradesh, India. No group claimed responsibility for the incident; however, sources noted that the victim was involved in an investigation of scams involving multiple madressas.",Armed Assault
2017,6,17,Jammu and Kashmir,Arrubugh,33.914609,74.906963,"The bombing attack took place at the crowded Banihal bus stand in Doda district, Jammu and Kashmir province, India.","07/17/2008: On Thursday afternoon at 13:05, 42 people, mostly civilians, were wounded when  Lashkar-e-Tayyiba (LeT) militants lobbed a grenade at the crowded Banihal bus stand in Doda district, Jammu and Kashmir province, India. Six CRPF security personnel were also injured in the attack. On 08/06/2008, police arrested LeT militant Nazir Ahmed who was allegedly involved in the attack. No claim of responsibility was made for the incident.",Bombing/Explosion
2017,7,31,Jammu and Kashmir,Arwani,33.785717,75.066156,The incident occurred in the Vivekanand Chowk neighborhood.,"10/26/2016: An explosive device detonated in Jammu, Jammu and Kashmir, India. No casualties were reported in the blast. No group claimed responsibility for the incident.",Bombing/Explosion
2017,10,22,Jammu and Kashmir,Arwani,33.779921,75.066955,The incident occurred near Mandir Masjid Point and Jewel Chowk,"03/25/2017: Assailants attacked Mohammed Hanief, the Private Security Official (PSO) of cleric Maulana Delavi, in Jammu, Jammu and Kashmir, India. Hanief was injured and his rifle was stolen in the attack. No group claimed responsibility for the incident.",Unarmed Assault
2017,3,7,Manipur,Ashang Khullen,25.116667,94.366667,"The incident occurred at the Mallya Hospital in Bangalore, Karnataka, India.","07/25/2008: On Friday afternoon, a series of explosions erupted within 45 minutes in Bangalore's central business district, Karnataka province, India, killing three and wounding 20. The seventh of eight explosions, caused by improvised explosive devices fitted with timers, occurred near the Mallya Hospital. No claim of responsibility was issued for the attack.",Bombing/Explosion
2017,10,22,Jammu and Kashmir,Ashmuji,33.671475,75.072565,,,Bombing/Explosion
2017,1,24,Manipur,Awanakhul,24.824882,93.562291,The incident occurred in the village of Ankdeli in the Koraput district.,"03/11/2012: Four assailants set a BSNL telephone exchange and a cellular network tower on fire in the village of Ankadeli, Odisha state, India. No group claimed responsibility for the attack; however, sources attributed it to Maoists.",Facility/Infrastructure Attack
2017,6,13,Jammu and Kashmir,Awantipora,33.922792,75.012195,,"01/09/2017: Assailants armed with grenades and firearms attacked a Border Roads Organization (BRO) General Reserve Engineer Force (GREF) camp in Battal, Jammu and Kashmir, India. At least three employees were killed and another was injured in the assault. Lashkar-e-Taiba (LeT) claimed responsibility for the incident.",Armed Assault
2017,3,15,Jammu and Kashmir,Baba Har,33.855,74.893889,,,Armed Assault
2017,11,8,Chhattisgarh,Bacheli,19.107132,81.953482,The incident occurred in the Kangpokpi district.,"04/30/2017: Assailants opened fire on a convoy of oil tankers near Kangpokpi, Manipur, India. At least two truck drivers were injured in the attack. No group claimed responsibility for the incident.",Armed Assault
2017,7,28,Jammu and Kashmir,Bachroo,33.716835,75.051658,,,Armed Assault
2017,10,29,Odisha,Badadengini,19.630918,83.494638,,"08/06/2016: An explosive device was discovered and defused in Imphal, Manipur, India. No group claimed responsibility for the incident.",Bombing/Explosion
2017,4,15,Bihar,Badaspur,25.095414,86.177743,,"02/21/2016: Assailants set fire to a Reliance Industries Limited cell phone tower generator room in Balu village, Jharkhand state, India. There were no reported casualties in the incident. This was one of three attacks in Balu on the same day. The Communist Party of India - Maoist (CPI-Maoist) claimed responsibility for the incidents.",Facility/Infrastructure Attack
2017,1,24,Bihar,Baddi,24.883753,83.902951,The incident occurred in the Nagaram suburb of the city.,"06/04/2014: Assailants threw a grenade at the residence of VS Vareiyo in Nagaram village, Imphal city, Manipur state, India. Vareiyo, a special contractor for National Rural Employee Guarantee Scheme, escaped the attack unharmed. No group claimed responsibility for the incident.",Bombing/Explosion
2017,4,1,Chhattisgarh,Badedongar,19.784281,81.526728,,11/27/2007: Eight saw mill workers were killed when suspected members of the Black Widows group opened fire on them near the town of Umrangso in India’s Assam State. The militants subsequently set fire to the saw mill.,Armed Assault
2017,5,15,Jharkhand,Badro,23.939938,86.271475,Located In Latehar District,"02/05/2013: Gunmen fired on a convoy carrying Kranti Kumar Gandeshi, a superintendent of police, in Bhendatungri village, Latehar district, Jharkhand state, India. No casualties were reported in the attack. The incident was attributed to the Communist Party of India - Maoist (CPI-M).",Armed Assault
2017,1,7,Haryana,Badshapur,28.398271,77.053568,"The bombing occurred near DDR College at Chabua in Dibrugarh, Assam, India.","07/27/2011: On Wednesday afternoon at 1515, in Dibrugarh, Assam, India, suspected Anti-Talks Faction of United Liberation Front of Assam (ULFA-ATF) militants exploded a grenade near DDR College at Chabua. Four shops were partially damaged, but there were no casualties in the attack. No group claimed responsibility, but ULFA-ATF was suspected.",Bombing/Explosion
2017,6,2,Jharkhand,Bagabandh,23.641788,86.292026,The incident occurred in the Ganeshpur Chatam area.,"01/17/2017: Assailants set fire to equipment a bridge construction site over Koel River in Latehar district, Jharkhand, India. No casualties were reported in the attack. No group claimed responsibility for the incident; however, sources attributed the attack to Maoists.",Facility/Infrastructure Attack
2017,9,1,Chhattisgarh,Baghdongari,20.227744,80.464734,"The incident occurred at a railroad stretch between Lumding, and Badarpur, Assam, India.","05/29/2009: On Friday, in Lumding, Assam, India, at a railroad stretch between Lumding to Badarpur, assailants removed railroad tracks. No group claimed responsibility. There were no reported casualties.",Facility/Infrastructure Attack
2017,12,1,Jharkhand,Bagma,22.962764,85.315469,,"03/28/2016: An explosive device detonated near an India Reserve Battalion (IRB) post in Moreh, Manipur, India. There were no reported casualties. This was one of two similar bombings that occurred in Moreh within a half hour. No group claimed responsibility for the incidents.",Bombing/Explosion
2017,8,1,West Bengal,Bagrakote,26.895767,88.585517,"The attack took place in Dalbhumgarh, East Singhbhum District, Jharkhand, India.","02/13/2010: On Saturday, in Dalbhumgarh, East Singhbhum District, Jharkhand, India, a local government official, Prashant Kumar Layek was kidnapped by suspected Communist Party of India-Maoist militants. The group demanded the release of jailed CPI-M militants and warned that the official would be killed in seven days if the demand was not met. He was set free on Friday 02/19/2010 at around 1835 after the Shibu Soren government agreed to release jailed prisoners.",Hostage Taking (Kidnapping)
2017,5,21,Uttar Pradesh,Bahuwara,25.714762,84.465697,"The attack took place in  Gaya, Bihar, India.","04/22/2009: On Wednesday, assailants attacked vehicles on main GT road; fired upon and killed one truck driver; then set fire to vehicles, damaging three oil tankers and five trucks.  No group claimed responsibility, but it was widely believed the Communist Party of India-Maoist (CPI-Maoist) was responsible.",Armed Assault
2017,5,23,Odisha,Baliapanda,19.795846,85.813476,,"05/30/2015: Assailants abducted an official of a construction company and set three vehicles of the Inder Gope Construction Company of Hazaribagh on fire in Murki, Jharkhand state, India. The outcome of the abduction is unknown. No group claimed responsibility for the incident; however, sources attributed the attack to Maoists.",Hostage Taking (Kidnapping)
2017,4,15,Jammu and Kashmir,Banderpora,33.867409,74.978583,,,Bombing/Explosion
2017,10,2,Chhattisgarh,Bandipara,18.672255,81.296732,,"11/30/2014: Assailants opened fire on a civilian at his residence in Bollonggre Apal area, Meghalaya state, India. The civilian was killed in the attack. No group claimed responsibility for the incident; however, authorities suspected the involvement of the Garo National Liberation Army.",Armed Assault
2017,7,4,Jammu and Kashmir,Bandipora district,34.509849,74.686821,,,Bombing/Explosion
2017,9,5,Karnataka,Bangalore,12.92684,77.518899,The incident occurred in the Kalimpong district.,"08/01/2017: Assailants raided a civilian residence in Bagrakote, West Bengal, India. Ten people were assaulted and injured, while four vehicles and a house were set on fire during the attack. No group claimed responsibility for the incident; however, sources attributed the attack to the Gorkha Janmukti Morcha (GJM), which denied involvement.",Unarmed Assault
2017,10,5,Odisha,Bapanapalli,18.142348,81.587167,,"01/01/2008:  Between 3-5 men with guns and grenades ambushed the Central Reserve Police Force recruitment centre  in the northern state of Uttar Pradesh in India early yesterday (Tuesday), in an attack that killed seven police officers and one rickshaw puller. The men opened fire at the centre located in Rampur over 250 kilometers north-west of state capital Lucknow at about 2:20 am. After they shot and killed two police officers and the rickshaw puller, the men threw a grenade over the gate of the centre which killed 5 more officers. Five reserve officers and two constables from the state police were also injured in the gun battle.  No group has claimed responsibility but it is suspected that the Islamic militant group Lashkar-e-Taiba are the attackers. They were not captured.",Armed Assault
2017,2,1,Bihar,Barachatti,24.502222,85.006944,Gaya district,"05/25/2011: Maoists detonated explosives at a government-run school in Tilaiya Khurd village, Gaya, Bihar, India. The blast destroyed the building. No group claimed responsibility for the bombing; however, authorities attributed the attack to Maoists.",Bombing/Explosion
2017,12,2,Jammu and Kashmir,Baramulla,34.205605,74.353867,,"01/20/2017: Assailants threw a grenade at a police vehicle in Narbal, Jammu and Kashmir, India. There were no reported casualties in the blast. No group claimed responsibility for the incident.",Bombing/Explosion
2017,12,18,Jammu and Kashmir,Baramulla district,34.191218,74.35001,,,Bombing/Explosion
2017,7,11,Chhattisgarh,Barbaspur,20.262232,81.208847,"The attack occurred in the  Circular Road, between Holy cross and Clock Tower junction.","07/29/2008: On Tuesday, a NSCN-IM activist was killed by NSCN-K militants in Dimapur.",Armed Assault
2017,9,9,Jammu and Kashmir,Barbugh,33.752962,74.906992,,09/02/2003: Islamic militants staged several reprisal attacks in concert in Indian Kashmir. In one attack a local Hindu politician was gunned down along with four associates.,Armed Assault
2017,8,31,Jammu and Kashmir,Barburgh,33.75245,74.907013,,"03/28/2003: About seven Islamic militants sliced off the noses of five civilians, including a woman, in the Kashmir village of Banihati, India. The militants accused the victims of being informers for the Indian army.",Armed Assault
2017,9,12,Chhattisgarh,Barda,20.041118,80.626495,,,Armed Assault
2017,2,12,Jharkhand,Barisa Tongri,23.04413,84.537946,"The attack was meant to take place at the residence of Vijay Kumar Singh in the Kala Pahar village of Aurangabad district, Bihar province, India.","04/01/2008: On Tuesday night, more than 200 Communist Party of India-Maoist (CPI-Maoist) militants attempted to assassinate a member of the State Legislative Assembly (MLA), Vijay Kumar Singh of the Lok Janshakti Party, in the Kala Pahar village of Aurangabad district, Bihar province, India. However, MLA member Vijay Kumar Singh was not present at his residence when the Maoist rebels arrived and therefore no casualties were reported. Police suspected that the Maoist attack was linked to an extortion demand on the construction company contracted by the MLA party, although no claim of responsibility was made for the incident.",Assassination
2017,12,15,Punjab,Barnala,30.371479,75.547699,,,Assassination
2017,12,27,Chhattisgarh,Basaguda,18.561113,80.920395,,,Armed Assault
2017,12,27,Chhattisgarh,Basaguda,18.561113,80.920395,,,Assassination
2017,2,12,Chhattisgarh,Basaguda,18.792596,80.813556,,"06/04/2011: On Saturday, in an unspecified location in Nagaland, India, a National Socialist Council of Nagaland-Isak-Muivah (NSCN-IM) militant identified as Nechizo of the armed wing was killed by a Naga National Council (NNC) member. No group claimed responsibility.",Unknown
2017,8,28,Chhattisgarh,Bastar district,19.102975,81.949115,,"04/13/2003: Suspected People’s War Group rebels shot dead four people in Karpi, Jehanabad district, India.",Armed Assault
2017,10,21,Jammu and Kashmir,Batagund,33.95289,75.092514,,,Armed Assault
2017,7,10,Jammu and Kashmir,Batangoo,33.756936,75.118788,,,Armed Assault
2017,7,10,Jammu and Kashmir,Batangoo,33.756914,75.118778,,,Assassination
2017,8,14,Jammu and Kashmir,Batpora,34.086149,74.515567,,"11/21/2002: Perpetrators stormed into a hotel serving as a Central Reserve Police Force (CRPF) camp in Regal Chowk, Srinagar, Jammu and Kashmir, India, killing six police officers and injuring 10. One suicide bomber made entry into the hotel with a grenade and detonated the grenade when confronted by a CRPF member. A second perpetrator was killed in a firefight. Lashkar-e-Taiba claimed responsibility for the incident.",Bombing/Explosion
2017,1,9,Jammu and Kashmir,Battal,32.930556,74.4064,,"12/31/2015: Assailants threw a grenade at an Indian Police Service (IPS) station in Srinagar city, Jammu and Kashmir state, India. There were no reported casualties in the blast. No group claimed responsibility for the attack.",Bombing/Explosion
2017,4,29,Manipur,Behiang,23.988674,93.55215,The incident occurred near Tamodi in Mirtur area of Bijapur district,"07/23/2017: Assailants detonated an explosive device targeting joint police personnel in Tamodi, Chhattisgarh, India. There were no reported casualties, though two assailants were arrested following the blast. No group claimed responsibility for the incident; however, sources attributed the attack to Maoists.",Bombing/Explosion
2017,4,9,Maharashtra,Bejur,19.429722,80.533889,"The attack occurred in the Dimasa village of Joraigaon, North Cachar Hills, Assam, India.","05/08/2009: On Friday morning, in Joraigaon, North Cachar Hills, Assam, India, Naga gunmen set fire to all of the houses in the Dimasa village, injuring one villager. The Citizen's Rights Protection Volunteers claimed responsibility.",Facility/Infrastructure Attack
2017,1,30,Bihar,Belkhoria,25.183809,86.890392,"The bombing attack took place in a crowded market in Modasa, Banaskantha, Gujarat province, India.","09/29/2008: On Monday evening at 2130, suspected Hindu extremists detonated an improvised explosive device in a crowded market in Modasa, Banaskantha, Gujarat province, India. One child was killed and nine civilians were injured from the blast which also caused an unknown amount of damage to the market. The bomb, which was placed on a motorcycle, was believed to have been detonated by a timer. No claim of responsibility was made for the incident.",Bombing/Explosion
2017,4,6,Chhattisgarh,Belodi,20.272713,81.48831,"The attack took place in the Dijaodra area of North Cachar Hills, Assam, India.","04/11/2009: On Saturday, in the Dijaodra area of North Cachar Hills, Assam, India, assailants fired upon a goods train, killing two Special Police Officers (SPO), wounding one other, and damaging the train. No group claimed responsibility, but authorities believed the Dima Halim Daogah-Jewel Garlossa (DHD-J) was responsible.",Armed Assault
2017,3,26,Jammu and Kashmir,Belov,33.871612,74.894569,The incident occurred in Kulgam district.,"05/08/2016: Assailants attacked an Indian Police Service (IPS) checkpost and disarmed four officers in Adijan, Kulgam district, Jammu and Kashmir, India. There were no reported casualties in the incident. No group claimed responsibility for the attack.",Facility/Infrastructure Attack
2017,8,2,Bihar,Bhalui,25.042379,86.177771,,"02/21/2016: Assailants set fire to a Reliance Industries Limited cell phone tower generator room in Balu village, Jharkhand state, India. There were no reported casualties in the incident. This was one of three attacks in Balu on the same day. The Communist Party of India - Maoist (CPI-Maoist) claimed responsibility for the incidents.",Facility/Infrastructure Attack
2017,1,10,Jharkhand,Bharno,23.231085,84.890664,,"11/24/2014: Security forces discovered and defused a roadside bomb in Bishenpur district, Manipur state, India. No group claimed responsibility for the incident.",Bombing/Explosion
2017,5,18,Uttar Pradesh,Bhawaniram,26,79.5,"The attack took place in Bangalbazar, Sukansangra area, Kokrajhar.","08/21/2009: On Friday morning at 0600, in Bangalbazar, Sukansangra area, Kokrajhar, Assam, India, four or five assailants fired upon and killed one Bodoland People's Front (BPF) member, Sonen Basumatary (32), in his home. No group claimed responsibility, but authorities believed the National Democratic Front of Bodoland (NDFB) - Ranjan Daimary Faction was responsible.",Armed Assault
2017,3,11,Chhattisgarh,Bheji,18.030192,81.320864,"The railway tracks near Ditackchera railway station, in Dima Hasao district, located between Lumding and Badarpur","11/3/2011: An explosive device detonated on a railway bridge near Ditackchera railway station, Assam state, India.  The explosion damaged the railway tracks, halting all train activity on the rail line between Lumding and Badarpur.  No group claimed responsibility for the incident; however, sources suspect that the Hill Tiger Force (HTF) executed the attack.",Bombing/Explosion
2017,10,1,Chhattisgarh,Bhejji,18.031073,81.322105,,"05/30/2015: Assailants abducted five construction employees in Lumding town, Assam state, India. Two of the employees were released on the same day; however, the whereabouts of the remaining three hostages is unknown. No group claimed responsibility for the incident.",Hostage Taking (Kidnapping)
2017,2,12,Jharkhand,Bhelwaghati,24.602707,86.221308,The incident occurred in the Palamu district.,"05/19/2017: Assailants assaulted two civilians in Amwatiker, Jharkhand, India. Kailash Tori was killed and Raja Tori was injured in the attack. No group claimed responsibility for the incident; however, sources attributed the attack to the Communist Party of India - Maoist (CPI-Maoist) and stated that the victims were accused of being police informants.",Unarmed Assault
2017,9,15,Maharashtra,Bhendikanhar,20.005278,80.080556,The incident occurred at the Balajan Tinali market.,"08/05/2016: Assailants threw grenades and opened fire at a market in Kokrajhar, Assam, India. At least 15 people, including an assailant and 14 civilians, were killed and 25 others were injured in the attack. No group claimed responsibility for the incident; however, sources attributed the attack to the National Democratic Front of Bodoland (NDFB), which the group denied. In addition, sources suspected the involvement of Muslim extremists.",Armed Assault
2017,11,24,Bihar,Bhimbandh,25.073564,86.438639,Near border with Tripura,"11/25/2012: Assailants kidnapped three civilians, including two timber traders, in Rajiv Nagar village in Mamit district, Mizoram state, India. The outcome of the kidnapping is unknown. No group claimed responsibility for the incident; however, officials suspected that National Liberation Front of Tripura (NLFT) was involved.",Hostage Taking (Kidnapping)
2017,2,1,Jharkhand,Bhimlat,23.8552,85.0309,The attack took place in Rohini village.,"01/23/2009: On Friday, a bomb exploded when children picked up a bag laying next to a pond in Rohini village in Deogarh, Jharkhand, India. Seven children were injured in the blast, no damage was reported, and no group has claimed responsibility.",Bombing/Explosion
2017,2,14,Maharashtra,Bhiwandi,19.281255,73.048291,,"09/17/2001: Eleven policemen were killed and nine injured when suspected Islamic militants of the Islamic separatist group Lashkar-e Taiba attacked their police camp in Handawar in the northern region of India-Kashmir. The attackers hurled grenades and fired weapons at the Indian police camp. One militant, identified as Abu Osama, was shot dead by police. No group claimed responsibility for the attack.",Armed Assault
2017,12,14,Madhya Pradesh,Bhoomkar,24.642994,80.76694,Western Assam (no city specified),"01/22/2007: Explosives packed on a motorbike blew up outside a railway station in western Assam, India, wounding three construction workers. No claim of responsibility was forthcoming, though officials suspected that the United Liberation Front of Assam was behind the attack.",Bombing/Explosion
2017,12,7,Bihar,Bhubhairav,26.59372,85.497686,,"12/15/2013: Assailants attempted to detonate an explosive device at a mobile phone tower in Palamu district, Jharkhand state, India. No casualties or damages were reported. This was one of two attacks on mobile phone towers in India on this day. No group claimed responsibility for the incidents; however, police attributed the attacks to Maoists.",Bombing/Explosion
2017,12,9,Odisha,Bidiguda,18.113497,82.112363,,"07/12/2014: Assailants opened fire on Ngalangzar Malue in Ukhrul district, Manipur state, India. Malue, a member of the Autonomous District Council (ADC), was killed and two others were wounded in the attack. No group claimed responsibility for the incident; however, sources attributed the attack to the National Socialist Council of Nagaland-Isak-Muivah (NSCN-IM).",Armed Assault
2017,8,17,Jammu and Kashmir,Bihim Nallah,34.634728,74.766675,,,Assassination
2017,1,26,Assam,Bihubor,26.819337,94.782104,,"01/20/2015: Assailants attacked a Communist Party of India: Marxist (CPI-M) worker at his home in Thuvakkunnu area, Kerala state, India. The worker was wounded in the attack. No group claimed responsibility for the incident; however, sources attributed the attack to Rashtriya Swayamsevak Sangh.",Armed Assault
2017,1,26,Assam,Bihubor,26.819337,94.782104,,"02/16/2016: Four explosive devices were discovered and defused near a school in Panoor, Kannur district, Kerala state, India. No group claimed responsibility for the incident.",Bombing/Explosion
2017,6,27,West Bengal,Bijanbari,27.073214,88.192265,,,Armed Assault
2017,6,12,West Bengal,Bijanbari,27.068953,88.192205,,"04/17/2014: Assailants detonated an explosive device near Gamharia village, Jharkhand state, India. There were no reported casualties in the blast. No group claimed responsibility for the incident; however, sources attributed the attack to Maoists.",Bombing/Explosion
2017,7,16,West Bengal,Bijanbari,27.074425,88.192126,The incident occurred in the Beldih area,"08/16/2015: An explosive device detonated in Beldih neighborhood, Jamshedpur city, Jharkhand state, India. At least one person was injured in the blast. The Students Islamic Movement of India (SIMI) claimed responsibility for the attack.",Bombing/Explosion
2017,8,2,West Bengal,Bijanbari,27.070337,88.192233,"The attack took place in the Bhadodih area of Jamshedpur, Jharkhand.","08/01/2009: On Saturday, in the Bhadodih area of Jamshedpur, Jharkhand, India, assailants set vegetable trucks on fire, destroying two trucks but causing no injuries. No group claimed responsibility, although it was widely believed the Communist Party of India-Maoist (CPI-Maoist) was responsible.",Facility/Infrastructure Attack
2017,5,14,Chhattisgarh,Bijapur district,18.75,80.683333,,,Armed Assault
2017,2,18,Chhattisgarh,Bijapur district,18.860831,80.721442,,,Bombing/Explosion
2017,2,25,Chhattisgarh,Bijapur district,18.860831,80.721442,,,Bombing/Explosion
2017,10,28,Chhattisgarh,Bijapur district,18.860831,80.721442,,,Bombing/Explosion
2017,6,25,Chhattisgarh,Bijapur district,18.579066,81.043992,The attack took place at the Fiding Dimasagaon of North Cachar Hills.,"05/09/2009: On Saturday morning at 0600, in Fiding Dimasagaon, nearly 350 km from Guwahati, Assam, India, assailants set fire to 43 houses dominated by the anti-talks faction of the Dima Halam Daogah. Three civilians identified as Thanagjam Dibhrakete, Ripunjay Dibhrakete and Hatulal Dibhrakete were killed in the attack, while an unknown number of people were injured. Citizen's Rights Protection Volunteers claimed responsibility.",Facility/Infrastructure Attack
2017,6,25,Chhattisgarh,Bijapur district,18.579066,81.043992,,"01/01/2016: Assailants abducted Nanhelal Shah, a local trader, from an area near Gairong village, Krishnai, Goalpara district, Assam state, India. The outcome of the kidnapping is unknown. No group claimed responsibility for the incident; however, police officials suspected that the United Liberation Front of Assam (ULFA) was involved.",Hostage Taking (Kidnapping)
2017,3,29,Jammu and Kashmir,Bijbehara,33.789497,75.103386,,"01/02/2002: Two Indian soldiers were killed and at least five injured when suspected Islamic militants opened fire on soldiers in Pathankot, 280 miles north of New Delhi.",Armed Assault
2017,10,1,Jammu and Kashmir,Bijbehara,33.789497,75.103386,,,Armed Assault
2017,6,18,Jammu and Kashmir,Bijbehara,33.789497,75.103386,,"01/02/2016: Assailants and suicide bombers attacked an Indian Air Force (IAF) base in Pathankot city, Pathankot district, Punjab state, India. At least five assailants and seven security personnel were killed and 20 others were injured in the ensuing clash that continued until January 4, 2016. The United Jihad Council claimed responsibility for the incident; however, Indian authorities denied the claim. Jaish-e-Mohammad (JeM) also claimed responsibility for the attack.",Bombing/Explosion
2017,7,17,Jammu and Kashmir,Bijbehara,33.789497,75.103386,The incident occurred on Jammu-Pathankot road.,"01/01/2016: Assailants kidnapped three people, including superintendent of police Salwinder Singh, on Jammu-Pathankot road in Pathankot city, Punjab state, India. The three hostages were released later the same day. This was one of two attacks carried out by the same assailants on the same day. No group claimed responsibility for the incident.",Hostage Taking (Kidnapping)
2017,11,30,Uttar Pradesh,Billhaur,26.843568,80.061886,,"10/21/2014: Assailants attacked Territorial Army (TA) Eco-Task Force personnel in Kokrajhar district, Assam state, India. There were no reported casualties in the incident, but rifles were stolen. No group claimed responsibility; however, sources attributed the attack to the Songbijit faction of the National Democratic Front of Bodoland (NDFB).",Unknown
2017,4,29,Jharkhand,Birbanki,22.890832,85.513136,"The attack took place at a middle school at Chadara village in Palamau, Jharkhand, India.","01/26/2011: On Wednesday morning, at Chadara village in Palamau, Jharkhand, India, around 50-60 militants blew up a middle school using dynamite. The attack caused an unknown amount of property damage and no casualties were reported. No group claimed responsibility, but it was suspected that Communist Party of India-Maoist militants were responsible. One suspected militant, Ram Bali Mehra, was arrested in connection with the attack.",Bombing/Explosion
2017,4,29,Jharkhand,Birbanki,22.890832,85.513136,"The attack took place at a house in Palamau, Jharkhand, India.","01/16/2011: On Sunday, in Palamau, Jharkhand, India, unidentified militants kidnapped a newly elected member of Taal panchayat (village level local self government institution) from his home. The victim was identified as Kishore Singh. No casualties were reported and the status of the hostage is unknown. No group claimed responsibility, but it was suspected that Communist Party of India-Maoist militants were responsible.",Hostage Taking (Kidnapping)
2017,4,29,Jharkhand,Birbanki,22.890832,85.513136,"The attack took place at Dalia village in Medininagar, Palamau.","04/08/2011: On Friday night, at Dalia village in Medininagar, Palamau, Jharkhand, India, suspected Communist Party of India-Maoist (CPI-M) militants kidnapped a teacher, identified as Ismail Ansari, and four other villagers. No casualties were reported and no group claimed responsibility, but it was suspected that Maoists were responsible. The status of the hostages is unknown.",Hostage Taking (Kidnapping)
2017,1,16,Andhra Pradesh,Bodumanupakalu,17.843611,82.156944,Various locations.,"01/25/2006: In a series of related incidents, Naxalite rebels carried out a string of bombings and other strikes in various parts of Bihar state, India, hours before the start of annual Republic Day celebrations. The targets were railway tracks, railway stations, and roads. The property damage resulting from the attacks was considerable, and the number of injuries and deaths was unknown.",Bombing/Explosion
2017,6,15,Jammu and Kashmir,Bogund,33.687646,75.050898,,,Armed Assault
2017,3,14,Karnataka,Bommasandra,12.823327,77.69187,,,Armed Assault
2017,11,10,Jammu and Kashmir,Bonigam,33.632553,75.133339,,,Bombing/Explosion
2017,12,4,Jammu and Kashmir,Bonigam,33.634505,75.135488,,,Hostage Taking (Kidnapping)
2017,3,11,Odisha,Borapadar,19.590489,83.270526,The incident occurred in the Part 1 section of Sibilong.,"11/29/2016: Assailants abducted five people, including a village vice-chairperson, from Sibilong, Manipur, India. The vice-chairperson was killed and two hostages were injured and released shortly after the kidnapping. The fate of the remaining two hostages is unknown. No group claimed responsibility for the incident; however, sources attributed the attack to the National Socialist Council of Nagaland-Isak-Muivah (NSCN-IM).",Hostage Taking (Kidnapping)
2017,10,8,Arunachal Pradesh,Bordumsa,27.515825,95.882316,,"04/11/2016: Security forces discovered three explosives-laden vehicles near Puttingal Devi temple in Paravur, Kerala, India. There were no reported casualties in the attack. No group claimed responsibility for the incident.",Bombing/Explosion
2017,1,13,Gujarat,Borsad,22.417103,72.896708,,"04/10/2014: Assailants attacked an Indian military patrol in Handwara town, Jammu and Kashmir state, India. One soldier was killed in the attack. No group claimed responsibility for the incident.",Armed Assault
2017,6,12,Odisha,Brahmapur,19.312699,84.78941,,,Armed Assault
2017,1,17,Jharkhand,Budarpakhar,24.428889,87.694722,,"02/05/2015: Assailants opened fire on Surendra Sharma in Harrajpura area, Madhya Pradesh state, India. Sharma, the father of a panchayat member, was wounded in the attack. No group claimed responsibility for the incident.",Armed Assault
2017,3,25,Jammu and Kashmir,Budgam district,33.934855,74.640043,,,Bombing/Explosion
2017,11,16,Jharkhand,Budha Pahad,23.691995,84.373245,,"04/09/2006: About 20-25 cadres of the Communist Party of India (CPI-Maoist) forces blew up a railway station and portions of a railway track on the Gaya-Dhanbad section of Mughalsarai division in the Gaya (District) of Bihar, India, at 2:15 a.m. by storming the Bansi Nala halt station and detonating dynamites to raze the room structure down, and then kidnapped four railway staff members.",Facility/Infrastructure Attack
2017,1,13,Jharkhand,Budharpakhar,24.428889,87.694722,,"02/05/2015: Assailants attacked polling officials in Garia area, Madhya Pradesh state, India. A civilian and a police officer were wounded when police returned fire, and the vehicle of a sector magistrate was damaged. No group claimed responsibility for the incident.",Armed Assault
2017,7,4,Jharkhand,Bukru,23.755347,84.354247,"The bombing attack took place in the pathology department of the RIMS hospital next to the office of the RIMS Director in Imphal, Manipur province, India.","05/25/2008: On Sunday night, suspected Kangleipak Communist Party (KCP) militants set off a timed bomb in the pathology department of the RIMS hospital next to the office of the RIMS Director in Imphal, Manipur province, India. Although no casualties were reported, the explosion caused heavy damages on the doors and office buildings, including the office of the RIMS Director. The hospital had reported receiving threats from KCP militants prior to the bombing attack, although no claim of responsibility was made for the incident.",Bombing/Explosion
2017,3,9,Chhattisgarh,Burkapal,18.281494,81.201225,"The attack took place in the Centaurs Medicos medical store in Dimapur, Nagaland, India.","12/01/2008: On Monday afternoon, at 1210, a former National Socialist Council of Nagaland-Isak-Muivah (NSCN-IM) militant, Vikashe Zhimo, was shot at and wounded by two unidentified militants at Notun Basti junction in Dimapur, Nagaland, India. That attack took place when Zhimo was chatting with a friend at a medical store, Centaurs Medicos. Police recovered three live rounds and one fired bullet of M20 pistol from the incident site. No group claimed responsibility for the attack.",Armed Assault
2017,4,29,Andhra Pradesh,Busuputtu,18.236111,82.37,The incident occurred in the Marangching Part-I.,"02/06/2015: Assailants abducted a civilian in Marangching Part-I area, Tamenglong district, Manipur state, India. The victim was found dead on February 8, 2015. The Zeliangrong United Front claimed responsibility for the incident, stating that it targeted the victim because he was an informer and collaborated in activities undermining the group.",Hostage Taking (Kidnapping)
2017,2,6,Bihar,Buxar,25.567655,84.033973,Near gate to Imphal College,"11/12/2012: A roadside bomb detonated near the entrance to Imphal College on the outskirts of Imphal city, Manipur state, India. One person was killed and another was injured in the blast. People's Revolutionary Party of Kangleipak (PREPAK) claimed responsibility for the incident and apologized to the citizenry, stating that the device had detonated prematurely and had targeted the wrong people.",Bombing/Explosion
2017,7,13,West Bengal,Chabbissay,26.894509,88.182847,40km from Jamshedpur,"07/23/2012: Assailants opened fire on a Central Reserve Police Force (CPRF) patrol in Chowka area, Seraikela-Kharsawan district, Jharkhand state, India. There were no reported casualties. This was one of two similar attacks in the area occurring within a few hours. No group claimed responsibility for the incident; however, a source attributed it to the Communist Party of India: Maoist (CPI-M).",Armed Assault
2017,11,15,Manipur,Chamol,24.317524,94.156905,,,Facility/Infrastructure Attack
2017,2,20,Bihar,Champapur,25.17,86.09,The attack took place in the Barihatu village of Latehar.,"09/01/2010: On Wednesday, in Barihatu village in Latehar, Jharkhand, India, around 20 militants raided the village and set ablaze three vehicles using petrol. Afterward, the militants beat up an uncle of Prakash Ram, a former RashtriyaJanata Dal (RJD) legislator. No group claimed responsibility, but it was suspected that cadres of the Communist Party of India-Maoist (CPI-M) were responsible.",Armed Assault
2017,3,7,Manipur,Chandel,24.273576,93.965115,,,Bombing/Explosion
2017,1,9,Jharkhand,Chanho,23.504769,84.977203,,"10/26/2012: Assailants detonated an explosive device targeting an Assam Rifles convoy on National Highway Two in the Wangjing area of Thoubal district, Manipur state, India. There were no reported casualties. No group claimed responsibility for the incident.",Bombing/Explosion
2017,1,26,Assam,Charaideo district,27.029246,95.021303,,"10/28/2017: Assailants threw petrol bombs at the house of T M Selvaganapthy, a former Tamil Nadu state minister, in Salem, Tamil Nadu, India. There were no reported casualties in the attack. No group claimed responsibility for the incident.",Facility/Infrastructure Attack
2017,8,7,Jammu and Kashmir,Charari Sharief,33.863483,74.767929,,,Armed Assault
2017,5,14,Bihar,Charkapatthar,24.687761,86.204019,,,Armed Assault
2017,3,1,Jharkhand,Chatra,24.208286,84.86605,The attack took place at the residence of Oinam Tombi Singh in Thoubal.,"03/01/2010: On Monday night, in Thoubal, Manipur, India, a group of Kangleipak Communist Party (KCP)- Puranthaba Meiraba faction militants attacked the private residence of a computer engineer. The victim was identified as Oinam Tombi Singh, working at the Thoubal Deputy Commissioner’s office. No casualties or damage were reported in the attack. The wife of the engineer alleged that a gunman, who claimed to be a cadre of Puranthaba Meiraba faction of the KCP, came to their house on February 27 and wanted to know why the engineer could not pay INR five lakh as demanded by them through a letter delivered on an unspecified date in the January and was warned that the amount must be paid. No group claimed responsibility for the attack.",Unknown
2017,11,26,Bihar,Chaukat,25.143056,86.505278,,"12/20/2009: On Sunday, in Palamau, Bokaro, Jharkhand, India, assailants detonated explosives at a community building, lightly damaging the building but causing no injuries. The Communist Party of India-Maoist (CPI-Maoist) claimed responsibility. Maoists left a pamphlet saying that the community building was blown up as it was used by the security forces during the polls.",Bombing/Explosion
2017,3,31,Odisha,Cheliamunda,18.16408,81.953482,,"02/29/2016: Assailants threw a grenade at the house of DK Thangboi, the Kangpokpi Additional Deputy Commissioner, in Kangpokpi town, Manipur state, India. There were no reported casualties. The Kuki Independent Organization (KIO/KIA) claimed responsibility for the incident and stated that DK Thangboi was targeted for allegedly insulting the group.",Assassination
2017,7,13,Tamil Nadu,Chennai,13.048631,80.249496,The attack occurred at Sapkata under Gossaigaon police station in Kokrajhar.,"07/27/2008: On Sunday, unidentified militants killed a leader of the Bodo People's Front party at a poilce station in Kokrajhar. No claim of responsibility has been reported.",Armed Assault
2017,5,21,Kerala,Cheriya Kaiveli,11.683959,75.65524,,,Assassination
2017,2,2,Jammu and Kashmir,Chersoo Awantipora,33.88525,75.025408,,"10/23/1999: At approximately 7:30 pm local time, a powerful bomb explosion injured more than twenty people in Jammu, Jammu and Kashmir State, India, when it detonated near the Raghunath Bazaar. The perpetrators of this incident were unknown.",Bombing/Explosion
2017,7,10,Manipur,Chhatra Bekra,24.786438,93.15388,The incident occurred along the tracks between Dantewara and Kamlur stations.,"05/26/2013: Assailants removed segments of the railroad tracks in Dantewada district, Chhattisgarh state, India. No one was injured in the attack; however, rail service was interrupted. No group claimed responsibility for the incident; however, officials suspected that the Communist Party of India - Maoist (CPI-M) had been involved in the attack.",Facility/Infrastructure Attack
2017,9,6,Jharkhand,Chhipadohar,23.815092,84.199699,"The attack took place in Khurai Ahongsangbam Leikai, Imphal.","09/18/2009: On Friday night around 2300, in Khurai Ahongsangbam Leikai, Imphal East, Manipur, India, unidentified militants attacked the residence of the FCS Minister, Yumkham Irabot Singh, with lathode bombs. The bombs were fired three times towards the residence of the minister, but the first and second missed, but the third one hit the mark. No causalities were reported. No group claimed responsibility.",Bombing/Explosion
2017,12,8,Jharkhand,Chhipadohar,23.815092,84.199699,"The attack took place in Uripok, Imphal.","09/29/2009: On Tuesday, in Uripok, Imphal, Manipur, India, a bomb exploded at the Langol View Clinic, wounding a medical worker and damaging the clinic. No group claimed responsibility.",Bombing/Explosion
2017,2,10,Chhattisgarh,Chilkapalli,18.496013,80.864972,,"11/05/2006: At least 12 people, mostly shoppers, were killed and more than 40 injured in two simultaneous bomb attacks in the northeastern Indian city of Guwahat. The first bomb ripped through the upscale Fancy Bazaar shopping arcade in the heart of Guwahati, the largest city in the nation's strife-torn state of Assam. The second bomb went off almost simultaneously in Patharkuwari on the city's outskirts. No group claimed responsibility",Bombing/Explosion
2017,10,26,Chhattisgarh,Chilparas,19.867515,80.966341,"The attack took place on a section of railway tracks near the Kurmi railway station in Muzaffarpur, Bihar, India.","05/06/2010: On Thursday, in Muzaffarpur, Bihar, India, unknown militants attacked a section of the East Central Railway line. Suspected Communist Party of India-Maoists detonated an explosive device, damaging a section of railroad track near the Kurmi railway station but causing no casualties. The militants reportedly were aiming to enforce a 48 hour ""bandh"" or shutdown in the state. A few railway tracks were damaged as a result of the attack. No group claimed responsibility for the attack but the Communist Party of India - Maoist (CPI-Maoist) is suspected.",Bombing/Explosion
2017,8,23,Jharkhand,Chinia Pahar,24.128001,84.186141,The attack took place in Imphal.,"01/20/2010: On Wednesday afternoon at 1330, in Imphal, Manipur, India, unidentified militants opened fire upon the residence of Sanasam Rajen, an engineer during his daughters marriage ceremony. No casualties were reported in the attack. No group has claimed responsibility for the attack.",Armed Assault
2017,4,7,Chhattisgarh,Chinna Kodepal,18.768324,80.73156,The incident occurred at Dadgiri near Indo-Bhutan border.,"08/13/2012: Assailants opened fire on a group of laborers in Dadgiri village, Chirang district, Assam state, India. One laborer was killed and two wounded. No group claimed responsibility for the incident; however, authorities suspected the National Democratic Front of Bodoland (NDFB).",Unknown
2017,1,12,Chhattisgarh,Chinnakodepal,18.768324,80.73156,The attack took place East of Guwahati,"08/07/2005: Members of the United Liberation Front of Assam (ULFA) bombed a gas pipeline in Assam State, India, later claiming responsibility for the attack.",Bombing/Explosion
2017,10,31,West Bengal,Chinsurah,22.891893,88.396714,Between Ramatandi and Namolepo villages,"08/25/2012: Two explosive devices were discovered and defused near Ramatandi village, Ghatshila town, Jharkhand state, India. Officials believed that the devices were planted in order to target security personnel. No group claimed responsibility for the incident; however, sources attributed it to Maoists.",Bombing/Explosion
2017,9,16,Chhattisgarh,Chintagupha,18.252285,81.244812,"The attack took place in Sara, Bihar, India.","07/27/2011: On Wednesday, in Saran, Bihar, India, a group of armed cadres of the Communist Party of India-Maoist (CPI-Maoist) blasted a tower and control room of a private telecom operator. Around 20 Maoists surrounded the tower, held the private security guard captive and triggered a dynamite blast to blow up the tower and control room. No group has claimed responsibility, but CIP-Maoists are suspected.",Bombing/Explosion
2017,11,19,Chhattisgarh,Chintagupha,18.252285,81.244812,The incident took place near Bajengdoba in North Garo Hills.,"06/05/2013: Four assailants stopped a bus, ordered everyone off, and set the bus on fire in Nengsawakse area, Meghalaya state, India. No one was injured in the attack; however, the bus was destroyed. A note was left at the scene by the Garo National Liberation Army, claiming responsibility for the incident and stating that the burning was in retaliation for the government's having ignored previous demands.",Facility/Infrastructure Attack
2017,2,18,Telangana,Chintur,17.742874,81.396271,,,Armed Assault
2017,2,19,Telangana,Chintur,17.742874,81.396271,,"02/11/2010: On Thursday evening at 2050, in Shillong city, Meghalaya, India, a person was wounded when an unidentified young male threw a petrol bomb at the office of a Khasi newspaper, U Nongsain Hima. The office building, two computer sets and a scanner were damaged in the explosion. No group claimed responsibility.",Facility/Infrastructure Attack
2017,1,5,Jammu and Kashmir,Chitragam,33.802216,74.940395,,"08/16/2001: Islamic militants fired on a police post at Sangaldan in Udhampur District, Jammu and Kashmir, India. A woman was injured in the crossfire.",Armed Assault
2017,10,22,Odisha,Chitrakonda,18.108706,82.10879,Incident occurred in Hamleikhong area,"09/04/2013: An explosive device detonated at Solomon Ningshen's compound in Hamleikhong village, Ukhrul district, Manipur state, India. Ningshen, the former president of the Tangkhul Naga Long (TNL), was not injured and there were no other casualties reported. No group claimed responsibility for the incident.",Bombing/Explosion
2017,1,13,Odisha,Chitrakonda,18.108706,82.10879,"The attack took place at Wungshungmi Kasar's residence in Sarkaphung village in Ukhrul, Manipur, India.","08/21/2011: On Sunday evening, in the Sarkaphung village of Ukhrul District in Manipur, India, executive engineer for the state Public Works Department (PWD), Wungshungmi Kasar, was kidnapped by the Kuki National Liberation Front (KNLF) at his residence. He was later released near Luwang Sangol Kuki Village in Senapati District of Manipur on 08/29/2011. The KNLF issued a press statement claiming responsibility on 08/24/2011. The issue stated that Wungshungmi Kasar was in the outfit’s custody and that there is nothing personal against him in the detention, but that the organization was forced to take action because despite several warnings to the PWD, the department did not perform their development works. The statement was signed by the outfit’s information and publicity secretary, Lunglen.",Hostage Taking (Kidnapping)
2017,11,14,Odisha,Chitrokonda,18.111514,82.109211,,"06/15/2015: Assailants abducted six employees of various political parties from Ukhrul town, Manipur state, India. Five workers were injured and all six were released later the same day. No group claimed responsibility for the incident.",Hostage Taking (Kidnapping)
2017,11,13,Odisha,Chitrokonda,18.109277,82.108809,,"05/30/2015: Assailants abducted an Indian National Congress (INC) supporter in Ukhrul town, Manipur state, India. The hostage was thrashed and released three hours later. No group claimed responsibility for the incident; however, sources attributed the attack to the National Socialist Council of Nagaland-Isak-Muivah (NSCN-IM).",Hostage Taking (Kidnapping)
2017,5,29,Jharkhand,Chiyanki,23.972922,84.126109,"The bombing occurred outside Milan Enterprises in Imphal, Manipur, India.","10/26/2011: On Wednesday evening at 2000, in Imphal, Manipur, India, outside Milan Enterprises unidentified militants detonated an improvised explosive device (IED) that wounded three civilians. The explosion ripped the metal shutters of Milan Enterprises and caused damages to a major portion of the shop. No group claimed responsibility for the bombing.",Bombing/Explosion
2017,6,21,Nagaland,Choknyu,26.735942,94.81989,"The attack took place in Cuddalore, Tamil Nadu, India.","05/13/2009: On Wednesday, in Cuddalore, Tamil Nadu, India, violence at a polling station left six civilians injured. No group claimed responsibility.",Armed Assault
2017,6,20,Chhattisgarh,Cholnar,19.20872,81.991475,"The bombing attack took place at the Block Development Officer’s Building in the government complex at Lakshmipur in Jamui district, Bihar province, India.","07/11/2008: On Friday morning, Communist Party of India (Maoist) / Naxalites detonated explosives against the Block Development Officer’s Building in the government complex at Lakshmipur in Jamui district, Bihar province, India. The Maoists have given a call for a shutdown in five east Bihar districts - Jamui, Munger, Bhagalpur, Lakhisarai and Banka - to protest the arrest and alleged custodial torture of a self-styled ‘area commander’ Kamlesh alias Deepa on 07/06/2008. No casualties were reported from the incident.",Bombing/Explosion
2017,3,20,Kerala,Choori,12.513942,74.987892,,"08/31/2001: Six Hindu villagers were kidnapped by suspected Islamic militants in Nowshera, Jammu and Kashmir, India. Four were shot and killed by Islamic militants and no further information was available on the other two.",Hostage Taking (Kidnapping)
2017,1,26,Arunachal Pradesh,Chowkham,27.816206,96.018848,,"11/01/2015: Assailants attacked Centre of Indian Trade Unions (CITU) workers in Kulathoor, Kerala, India. Three workers were injured in the attack. No group claimed responsibility for the incident.",Armed Assault
2017,7,13,West Bengal,Chowrasta,27.05804,88.264273,,"12/04/2014: Assailants kidnapped four employees of the Director General of Mines Safety (DGMS) who were inspecting an abandoned asbestos mine in Roro village, Jharkhand state, India. The officials were released on December 5, 2014. No group claimed responsibility for the incident; however, sources attributed the abduction to the People's Liberation Front of India.",Hostage Taking (Kidnapping)
2017,3,7,Chhattisgarh,Churegaon,19.596543,81.67261,The incident occurred in the Senapati district.,"11/14/2015: Assailants abducted two truck drivers from Daine village, Senapati district, Manipur state, India. The outcome of the kidnapping is unknown. No group claimed responsibility for the incident.",Hostage Taking (Kidnapping)
2017,5,29,Jharkhand,Chutte,23.830447,85.697691,,"07/09/2013: An explosive device detonated near an Assam Rifles patrol in Behiang village, Manipur state, India. The number of casualties is unknown. No group claimed responsibility for the incident.",Bombing/Explosion
2017,3,16,Tamil Nadu,Coimbatore,11.016845,76.955832,The incident occurred in Tinsukia district,"08/12/2016: Assailants opened fire in Bahbon, Assam, India. At least three people were killed and five others were injured in the attack. No group claimed responsibility for the incident; however, sources attributed the attack to the United Liberation Front of Assam (ULFA).",Armed Assault
2017,6,17,Tamil Nadu,Coimbatore,11.016845,76.955832,,"10/01/2007: Two Indian civilians were killed and 21 others, including 19 civilians and two Indian paramilitaries, were wounded when an improvised explosive device (IED) planted by an unknown number of United Liberation Front of Assam (ULFA) perpetrators detonated in the evening at a police checkpoint in Tinsukia, Assam State, India.",Bombing/Explosion
2017,9,30,Odisha,Cuttack,20.457367,85.882522,,"07/29/2003: Militants belonging to the outlawed National Liberation Front of Tripura (NLFT) dragged out a family of four people from their home and killed them in the village of Champahaur, India. The militants reportedly lined up the four - an elderly mother, her two daughters and a teenaged son - and shot them dead from close range using automatic weapons. The rebels reportedly targeted the family because two of their sons, who were earlier NLFT cadres, had surrendered to authorities.",Armed Assault
2017,5,22,Odisha,Cuttack,20.464584,85.85831,"The attack took place at Pusparampara in Kusharambai, North Tripura.","11/10/2009: On Tuesday, at about 0000 midnight, at Pusparampara in Kusharambai, North Tripura, Tripura, India, assailants raided the village and kidnapped eight civilians and fired upon and killed eight and wounding one other. The National Liberation Front of Tripura (NLFT) claimed responsibility.",Hostage Taking (Kidnapping)
2017,8,19,Jammu and Kashmir,Dailgam,33.680453,75.16487,,,Armed Assault
2017,8,13,Jharkhand,Dalma,22.902254,86.200741,,"06/23/2015: Assailants detonated an explosive device on railway tracks in Chhipadohar area, Jharkhand state, India. There were no reported casualties, although a Palamu Express train was derailed as a result of the blast. No group claimed responsibility for the incident; however, sources attributed the attack to Maoists.",Bombing/Explosion
2017,1,10,Meghalaya,Dalu,25.20839,90.230948,"The attack took place on voters in the Parangir village in West Singhbhum, Jharkhand, India.","12/13/2010: On Monday, in Parangir village in West Singhbhum, Jharkhand, India, suspected Communist Party of India-Maoist (CPI-M) militants fired upon voters during the third phase of the panchayat elections. No casualties or damages were reported and no group claimed responsibility, but it was suspected that Maoists were responsible.",Armed Assault
2017,4,27,Meghalaya,Dambuk,25.294071,90.418105,,"05/02/2016: Five explosive devices were discovered and defused along Indian Railways tracks in Topadihi, Jharkhand, India. No group claimed responsibility; however, sources suspected that the attack may have been carried out by Maoists.",Bombing/Explosion
2017,8,2,Meghalaya,Dambuk Aga,25.213064,90.762825,Khuripani village in Khaprakhol block,"11/14/2011: Maoists shot and killed Krushna Punji, a tribal ward member of Khuripani village, Odisha State, India.  Approximately 25 male and female Maoists came to Punji's house in Khuripani, took him to the outskirts of the village where approximately 100 more Maoists were waiting, and shot him dead.  A note was left with the body stating that Punji was exploiting and abusing women and that he was a police informer.",Armed Assault
2017,4,25,Meghalaya,Dambuk Atong,25.294061,90.382892,"The attack took place in Mogahataburu village in West Singhbhum, Jharkhand, India.","03/18/2011: On Friday, in Mogahataburu village in West Singhbhum, Jharkhand, India, unidentified militants blew up a water pump, causing an unknown amount of property damage but resulting in no casualties. The specific motive for the attack is unknown; however, it was believed the bombing was to protest the ongoing operation against militants in Saranda forest. No group claimed responsibility, but it was suspected that Communist Party of India-Maoist (CPI-M) militants were responsible.",Bombing/Explosion
2017,10,26,Jammu and Kashmir,Damhal Hanjipora,33.620945,74.924266,The incident occurred in the Rajouri district,"03/10/2016: An explosive device was discovered and defused in Namblan, Rajouri, Jammu and Kashmir, India. No group claimed responsibility for the incident.",Bombing/Explosion
2017,8,1,Andhra Pradesh,Damuku,18.190283,83.019353,,"08/24/2012: Assailants threw a hand grenade at the residence of Chinglen Leitanthem, a junior engineer for the Public Health Engineering Department, in Nongren area, Manipur state, India. There were no reported casualties or damages in the blast. This was one of two similar hand grenade attacks against government engineers in Manipur state on the same day. No group claimed responsibility for the incidents.",Bombing/Explosion
2017,7,31,Odisha,Dandipadar,18.543655,82.222946,The incident occurred near Manikpur railway station.,"01/28/2016: An explosive device was discovered and defused on a train near Manikpur railway station in Chitrakoot district, Uttar Pradesh state, India. No group claimed responsibility for the incident.",Bombing/Explosion
2017,5,1,Jammu and Kashmir,Dangerpora,33.91331,74.99272,"A crowded area of Reasi town in Udhampur district, 80 kilometers from Jammu","1/31/2002:  Suspected Muslim militants detonated an explosive device in a crowded area of Reasi town, Kashmir, India.  At least four people were killed in the blast and at least another five people were injured.  No group has claimed responsibility for the incident.",Bombing/Explosion
2017,6,29,Jammu and Kashmir,Dangerpora,34.152034,74.825099,,,Facility/Infrastructure Attack
2017,2,7,Chhattisgarh,Dantewada district,18.673257,81.220829,"The attack took place at the Naga Shopping Arcade supermarket in downtown Dimapur district, Nagaland province, India.","05/21/2008: On Wednesday afternoon, two National Socialist Council of Nagaland (NSCN-U) militants fired three shots to the head of Journey Shimray, a trader belonging to the Tangkhul community, killing him at the Naga Shopping Arcade supermarket in downtown Dimapur district, Nagaland province, India. No claim of responsibility was made for the incident.",Armed Assault
2017,1,25,Chhattisgarh,Dantewada district,18.9,81.35,The incident occurred in the Ballia district.,"05/21/2017: Assailants opened fire on Sumer Singh near Bahuwara, Uttar Pradesh, India. Singh, a Samajwadi Party (SP) leader and former district secretary, was killed and a passerby was injured in the attack. No group claimed responsibility for the incident.",Assassination
2017,6,22,Chhattisgarh,Dantewada district,18.759336,81.556122,"Two km from Williamnager, in East Garo Hills","01/28/2012: Assailants burned down the house of Andreas Momin in Bokkingre billage, East Garo Hills district, Meghalaya state, India. Momin was a former member of the Garo National Liberation Army (GNLA) who had turned in his weapons to police. No group claimed responsibility, but authorities attributed the attack to the GNLA, noting that the assailants had given Momin a week to refund them the value of the weapons.",Facility/Infrastructure Attack
2017,4,24,Chhattisgarh,Dantewada district,18.84563,81.383933,,"02/17/2016: Four assailants abducted two drivers in Ganol Apal village, Meghalaya, India. The outcome of the abduction is unknown. No group claimed responsibility for the incident.",Hostage Taking (Kidnapping)
2017,10,11,Andhra Pradesh,Darakonda,17.973986,82.088374,,"09/17/2014: An explosive device detonated near the Nitu Glass Hardware Shop in Ukhrul town, Manipur state, India. At least two people were killed and two others were injured in the blast. No group claimed responsibility; however, sources suspect that the Manipur Nationalist Revolutionary Party (MNRP) was behind the attack.",Bombing/Explosion
2017,8,19,West Bengal,Darjeeling,27.046316,88.271156,,"04/27/2014: Assailants opened fire on a civilian in Gaghra area, Jharkhand state, India. The individual was killed in the attack. No group claimed responsibility for the incident; however, sources attributed the attack to Maoists.",Armed Assault
2017,8,24,West Bengal,Darjeeling,27.046316,88.271156,,,Armed Assault
2017,9,24,West Bengal,Darjeeling,27.046316,88.271156,"The attack took place in Bhulabheda, West Midnapore, West Bengal, India.","04/10/2009: On Friday evening at 1800, in Bhulabheda, West Midnapore, West Bengal, India, assailants fired upon and killed a branch committee member of the Communist Party of India-Marxist (CPI-M).  No group claimed responsibility, but it was widely believed the Communist Party of India-Maoist (CPI-Maoist) was responsible.",Armed Assault
2017,6,27,West Bengal,Darjeeling,27.050812,88.26282,The incident occurred in Hugli district.,"11/12/2017: Assailants opened fire and threw explosive devices at a police checkpoint in Rishra, West Bengal, India. Two bystanders were injured in the attack. No group claimed responsibility for the incident.",Armed Assault
2017,7,19,West Bengal,Darjeeling,27.046316,88.271156,"The attack occurred in Karkel, 80km from the Khunti district headquarters, Jharkhand, India.","11/30/2011: Suspected Communist Party of India - Maoist (CPI-Maoist) members abducted a bus driver, Partho Mishra, Wednesday evening in Karkel in Khunti district, Jharkhand, India, after he had finished dropping off a wedding party in a nearby village. While his assistant, Sanjay Topno, was released, the assailants took Mishra and his bus to the nearby village of Kenbaki, 15km away, where his body was discovered early Thursday morning. It is believed that the perpetrators held the victim for approximately six hours before shooting him and leaving his body and his bus behind. While the exact motive for the attack is unknown, authorities believe that Mishra was targeted because he was a supporter of the People's Liberation Front of India (PLFI), a rival organization of the CPI-M. It is unknown whether a ransom was demanded by the perpetrators.",Assassination
2017,7,19,West Bengal,Darjeeling,27.046316,88.271156,The incident occurred in the North 24-Parganas district.,"03/14/2014: Assailants opened fire on members of the All India Trinamool Congress outside their party office in Agarpara area, West Bengal state, India. One party leader, Hyder Ali, was killed and one member, Ullas Jana, was wounded in the attack. No group claimed responsibility for the incident.",Assassination
2017,8,24,West Bengal,Darjeeling,27.046316,88.271156,,"04/25/2015: An explosive device detonated at a Trinamool gathering in Madhyamgram area, West Bengal state, India. One person was killed and four others were wounded in the blast. No group claimed responsibility for the incident.",Bombing/Explosion
2017,8,10,West Bengal,Darjeeling,27.046649,88.261906,The attack took place at a community hall in Radhanagar village in West Midnapore.,"09/24/2010: On Friday night, in one of two related attacks, a large group of suspected Communist Party of India-Maoists (CPI-M) set ablaze a community hall in Radhanagar village in West Midnapore, West Bengal, India. The attack caused an unknown amount of property damage to the building, but caused no casualties. The Communist Party of India-Maoist (CPI-Maoist) claimed responsibility.",Facility/Infrastructure Attack
2017,6,12,West Bengal,Darjeeling,27.046316,88.271156,"The incident took place in Kalaimuri village in West Midnapore, West Bengal, India.","07/30/2009: On Thursday, in one of two related attacks, in Kalaimuri village in West Midnapore, West Bengal, India, assailants kidnapped two Communist Party of India-Marxist (CPI-M) members, identified as Sailen Deb Sinha and Anadi Deb. The status of the hostages is unknown. No group claimed responsibility, but it was widely believed the Communist Party of India-Maoist (CPI-Maoist) was responsible.",Hostage Taking (Kidnapping)
2017,8,2,West Bengal,Darjeeling,27.046316,88.271156,"The attack took place at the residence of Basir Khan in Joynagar, West Midnapore, West Bengal, India.","03/24/2010: On Wednesday, in Joynagar, West Midnapore, West Bengal, India, assailants kidnapped a member of the Communist Party of India-Marxist (CPI-M), Basir Khan, from his residence. The assailants then fired upon and killed him. No group claimed responsibility, although police believed that the Communist Party of India-Maoist (CPI-Maoist) was responsible.",Hostage Taking (Kidnapping)
2017,8,19,West Bengal,Darjeeling,27.046649,88.261906,"The attack took place in Rashidpur village, in Midnapore, West Bengal, India.","11/20/2010: On Saturday night, in the Rashidpur area of Midnapore, West Bengal, India, unidentified militants kidnapped an activist of the Communist Party of India-Marxist (CPM), identified as Ganesh Ahir. The hostage was beheaded later that day. No group claimed responsibility, but it was suspected that Communist Party of India-Maoist (CPI-M) militants were responsible.",Hostage Taking (Kidnapping)
2017,7,8,West Bengal,Darjeeling district,27.040663,88.26152,The attack took place in the Chandra village in West Midnapore.,"10/24/2010: On Sunday, in Chandra village in West Midnapore, West Bengal, India, unidentified militants shot and injured a Class 10 student, identified as Kartik Mahato. Though the exact cause of the attack on Kartik is not known, the West Bengal police claim that the Maoists wanted the school student to join the movement. However, Kartik's parents were against his joining the Maoists. No group claimed responsibility, but it was suspected that Communist Party of India-Maoist (CPI-M) militants were responsible.",Armed Assault
2017,7,8,West Bengal,Darjeeling district,27.05,88.266667,The attack took place in the Phulkusma area of Bankura District in India's West Bengal state.,"02/19/2010: On Friday, in the Phulkusma area of Bankura District in India's West Bengal state, suspected Communist Party of India - Maoist (CPI-Maoist) militants set ablaze several shops and houses during an attack at a busy market in Phulkusma. The assailants took with them nearly INR 300, 000 (6371 USD) in cash. No casualties were reported and no group claimed responsibility.",Facility/Infrastructure Attack
2017,6,27,West Bengal,Darjeeling district,27.089918,88.377346,"The attack took place in Jorkisoli village near Lalgarh, India.","10/12/2009: On Monday, the body of Jharkhand anti-Maoist “Maobadi Protirodh Committee"" member, Kanai Murmu (48), was found. Murmu, a resident of Jorkisoli village near Lalgarh, was dragged out from his house by a group of armed men in the early hours of 10/12/2009. Later, his bullet-riddled body was found by local residents beside a pond in Binapur's Salpatra. Murmu was a former gram panchayat (village level local self-Government institution) member of Jharkhand Party-Naren, who had joined the Gana Pratirodh Committee (an anti-Maoist Committee) and mobilized local youths against Maoists. No group claimed responsibility.",Hostage Taking (Kidnapping)
2017,10,28,Jharkhand,Darla,22.994711,85.215306,,"10/25/2014: Assailants opened fire on a security patrol in Kathikund area, Jharkhand state, India. There were no reported injuries. No group claimed responsibility for the incident; however, sources attributed the attack to Maoists.",Armed Assault
2017,10,28,Jharkhand,Darla,22.994711,85.215306,"The hostage was taken from a house in Jhagartari village in Chatra, Jharkhand, India.","06/22/2008: On Sunday, at 2030, 70 Communist Party of India Maoists kidnapped Pankaj Singh, a suspected police informer, in Jhagartari village in Chatra, Jharkhand, India. Singh was killed with a sharp-edged weapon for being a suspected police informer.",Hostage Taking (Kidnapping)
2017,6,26,Odisha,Darliput,18.374374,82.714555,The incident occurred at a worksite near the Singda Dam in the district.,"01/11/2014: Assailants abducted four laborers, including an employee of the Public Works Department, from a construction site near the Singda Dam in Senapati district, Manipur state, India. The four hostages were released on January 17, 2014. No group claimed responsibility for the incident; however, sources suspected that the Nehlun faction of the Kuki National Front (KNF) was behind the abduction.",Hostage Taking (Kidnapping)
2017,11,24,Bihar,Darna,24.599619,84.80334,The incident occurred in Gaya district.,"05/02/2016: An explosive device detonated in Misri Chak, Gaya district, Bihar, India. At least two children were injured in the blast. No group claimed responsibility for the attack.",Bombing/Explosion
2017,7,28,Jammu and Kashmir,Dashin-Sempora,33.650754,75.018021,,"08/06/2015: Assailants opened fire on a police post in Basantgarh area, Udhampur district, Jammu and Kashmir state, India. Two police officers were injured in the attack. No group claimed responsibility for the incident.",Armed Assault
2017,7,28,Jammu and Kashmir,Dashin-Sempora,33.64542,75.019676,The incident took place at a house of in Jammu.,"08/27/2008: On Wednesday, Lashkar-e-Tayyiba militants held ten people hostage in a house in Chinore, after an armed assault. Two civilians, a Territorial Army soldier and three militants were killed in the attack and a woman was also wounded in the gun-battle inside the house.",Hostage Taking (Kidnapping)
2017,4,7,Jharkhand,Datuta,24.128611,84.185712,"The attack took place at a hardware shop at Hatta in Imphal East, Manipur, India.","02/27/2011: On Sunday at 1240 noon, at a hardware shop at Hatta in Imphal East, Manipur, India, a bomb detonated in front of the shop, causing an unreported amount of property damage to the shop. Seven people, including two traffic personnel, two non locals and a shop owner, were injured. Fragments of a Chinese made grenade were recovered from the incident site. The specific motive for the attack is unknown; however, officials suspect that the shop owner was being extorted by the militants. No group claimed responsibility, but it was suspected that People’s United Liberation Front (PULF) militants were responsible.",Bombing/Explosion
2017,5,9,Tamil Nadu,Deevakottai,9.954906,78.821453,"The attack took place in the village of Basantpatti Chawk, Sheohar.","09/15/2010: On Wednesday night at 0200, over 50 suspected Communist Party of India-Maoist (CPI-Maoist) using petrol and kerosene, set fire to two buses in Basantpatti Chawk, Sheohar, Bihar, India. The buses were destroyed but caused no casualties. No group claimed responsibility, although it was believed that Communist Party of India-Maoist (CPI-Maoist) was responsible.",Facility/Infrastructure Attack
2017,4,1,Jammu and Kashmir,Degwar,33.789308,74.106369,"The attack took place at a shop in Sopore market in Sopore, Baramulla, Jammu and Kashmir, India.","02/11/2011: On Friday afternoon around 1600, at a shop in Sopore market in Sopore, Baramulla, Jammu and Kashmir, India, unidentified militants shot and injured Arif Hussain Reshi. According to police, Reshi was shot accidentally and was not the intended target. No damages were reported and no group claimed responsibility for this incident.",Armed Assault
2017,6,24,Assam,Dekapam,26.412131,91.349744,The incident occurred in Kanker district.,"04/06/2017: Assailants abducted a suspected informant in Belodi, Kanker district, Chhattisgarh, India. The hostage was killed and his body was discovered in the forest near the village a short time later. No group claimed responsibility; however, sources attributed the attack to Maoists.",Hostage Taking (Kidnapping)
2017,4,25,Maharashtra,Deori,21.065726,80.368038,,,Bombing/Explosion
2017,11,8,Chhattisgarh,Depla,18.758955,80.275742,,,Unknown
2017,4,15,Jammu and Kashmir,Dhangerpora,33.808027,74.810489,,,Hostage Taking (Kidnapping)
2017,9,30,Kerala,Dharmadom,11.776385,75.466329,,,Armed Assault
2017,1,8,Bihar,Dhelwa Gossai,25.611,85.144,,"07/03/2015: An explosive device was discovered and defused in Torbung village, Bishnupur district, Manipur state, India. No group claimed responsibility for the incident.",Bombing/Explosion
2017,3,6,Assam,Dhemaji district,27.4798,94.5511,,"01/09/2014: Assailants opened fire on Shuja Kushalappa in Virajpet city, Kodagu district, Karnataka state, India. Kushalappa, the president of Karnataka's Bharatiya Janata Party (BJP), was injured in the attack. No group claimed responsibility for the incident.",Assassination
2017,9,13,Maharashtra,Dhibra,20.471329,79.260735,,"09/13/2014: Assailants threw a hand grenade at a Bargara Tea Estate office near Dalgaon town, Assam state, India. One person was killed and two others were wounded in the blast. No group claimed responsibility for the incident; however, sources attributed the attack to the National Democratic Front of Bodoland (NDFB).",Bombing/Explosion
2017,8,19,Jammu and Kashmir,Dhobipora,33.757885,74.931837,,08/27/2004: Unknown attackers threw a grenade at a vehicle carrying three National Conference members of India’s Legislative Assembly. The attack occurred in Seri while the three were driving on the Jammu-Srinagar National Highway. The grenade failed to hit the vehicle and the occupants escaped unharmed. No group claimed responsibility for the incident.,Bombing/Explosion
2017,6,27,West Bengal,Dhobitala,22.530805,88.297922,The incident occurred at the Howrah railway station,"09/23/2015: At least five explosive devices were discovered and defused on a Falaknuma Express train at the Indian Railways station in Howrah city, West Bengal state, India. No group claimed responsibility for the attack.",Bombing/Explosion
2017,7,13,West Bengal,Dhudhia,26.821522,88.244927,,,Facility/Infrastructure Attack
2017,1,26,Assam,Dibrugarh,27.470605,94.910431,,"04/14/2012: Assailants threw explosive devices at a home in Parakkadavu village, Kerala state, India. This was one of three attacks on homes in this area, across which two people were injured. No group claimed responsibility for these incidents.",Bombing/Explosion
2017,8,14,Assam,Digboi,27.395147,95.630023,The incident occurred in the Mathichiyam neighborhood.,"01/10/2016: Assailants threw explosive devices and incendiary devices at the All India Anna Dravida Munnetra Kazhagam (AIADMK) office in Mathichiyam neighborhood, Madurai, Tamil Nadu state, India. There were no reported casualties in the attack. This was one of two similar incidents targeting AIADMK offices and politicians in Madurai on the same day. No group claimed responsibility for the attack.",Bombing/Explosion
2017,10,16,Bihar,Diha,24.738566,84.800856,,"08/24/2012: Assailants threw a hand grenade at the residence of Ibochouba Konthoujam, a junior engineer for the Public Health Engineering Department, in Manipur state, India. The grenade failed to detonate. This was one of two similar hand grenade attacks against government engineers in Manipur state on the same day. No group claimed responsibility for the incident.",Bombing/Explosion
2017,5,25,Assam,Dikom,27.449004,95.083712,,,Assassination
2017,10,10,Assam,Dima Hasao district,25.3478,93.017571,The incident occurred in the Bhairamgarh area,"02/17/2015: Assailants opened fire on Nehru Punem in Bhairamgarh area, Chhattisgarh, India. Punem, an assistant police constable, was killed in the attack. No group claimed responsibility for the incident; however, sources attributed it to Maoists.",Armed Assault
2017,5,29,Nagaland,Dimapur,25.908789,93.72472,,"11/27/2014: Assailants opened fire on a police patrol in Bijapur district, Chhattisgarh state, India. One assailant was killed in the ensuing clash. No group claimed responsibility for the incident; however, sources attributed the attack to Maoists.",Armed Assault
2017,5,15,Nagaland,Dimapur,25.92,93.73,,"01/13/2016: An explosive device detonated in Bijapur district, Chhattisgarh state, India. At least two people were injured in the blast. No group claimed responsibility; however, sources attributed the attack to Maoists.",Bombing/Explosion
2017,5,13,Nagaland,Dimapur,25.906057,93.714953,The incident occurred in the Koraput district.,"06/22/2014: Assailants attacked Ashis Saunta, a local civilian, at his residence in Tankuapada village, Koraput district, Odisha state, India. Saunta was killed after he was dragged out of his home and shot by the assailants. According to a letter left with the victim, Communist Party of India - Maoist (CPI-Maoist) claimed responsibility for the incident, stating that they targeted Saunta because he was a police informant. However, other sources stated that CPI-Maoist killed Saunta because he encouraged villagers to vote in defiance of the CPI-Maoist call for a poll boycott.",Hostage Taking (Kidnapping)
2017,6,2,Assam,Dingdinga,26.333821,89.894942,"The attack took place in Jhargram, West Midnapore, West Bengal, India.","11/22/2009: On Sunday, in Jhargram, West Midnapore, West Bengal, India, assailants fired upon and killed a local leader of the Communist Party of India-Marxist (CPI-M). The Communist Party of India-Maoist (CPI-Maoist) claimed responsibility.",Armed Assault
2017,1,24,Maharashtra,Diva,19.188507,73.04171,Near Handwara 80 kilometers north of Srinagar,"08/27/2005: Suspected insurgents attacked a convoy carrying Kashmir Forest Minister Ghulam Mohi-ud-Din Sofi near Handwara, India. No group claimed responsibility for the attack.",Assassination
2017,3,26,Jammu and Kashmir,Dooru,33.57754,75.222556,,,Armed Assault
2017,6,20,Chhattisgarh,Dornapal,18.153452,81.508949,,"06/06/2014: Assailants threw a grenade at the Tura police outpost in Meghalaya state, India. The grenade failed to detonate and no one was injured. No group claimed responsibility for the incident.",Bombing/Explosion
2017,10,9,Jammu and Kashmir,Drang,33.96094,74.549266,,06/01/2002: Anti-Indian guerrilla forces killed 1 and injured 13 in overnight grenade attacks in the Kashmiri town of Srinagar.,Bombing/Explosion
2017,6,19,Jammu and Kashmir,Drubgam,33.822968,74.81589,,,Armed Assault
2017,8,7,Jammu and Kashmir,Drubgam,33.82021,74.815835,,,Armed Assault
2017,3,5,Assam,Dubluhabi,26.933,94.7481,The incident occurred in the Kannur district.,"06/19/2017: Assailants threw petrol bombs at the house of K.K. Dinesan in Mokeri, Kerala, India. Dinesan, a Communist Party of India: Marxist (CPI-M) district committee member, was not harmed in the attack. No group claimed responsibility for the incident.",Facility/Infrastructure Attack
2017,2,15,Bihar,Dugdha,24.934373,83.611517,The incident occurred in Uripok Bachaspati Leikai area of the city,"03/27/2016: An explosive device detonated at the residence of Gurumayum Robindro Sharma, a government engineer, in Imphal, Manipur, India. There were no reported casualties in the blast. No group claimed responsibility for the incident.",Bombing/Explosion
2017,12,5,Chhattisgarh,Duler,18.994111,82.068441,,,Facility/Infrastructure Attack
2017,12,20,Bihar,Dumaria,24.442418,84.398754,The incident occurred in the Chakarbandha area,"12/06/2014: Assailants abducted M.D. Shabbir from his residence in Gaya district, Bihar state, India. Shabbir was killed and his body was discovered on December 7, 2014. No group claimed responsibility for the incidents; however, sources attributed the attack to Maoists, stating that Shabbir was targeted because they believed him to be a police informant.",Hostage Taking (Kidnapping)
2017,5,29,Jharkhand,Dumri,23.919594,86.03956,"The attack took place in Ratia, Dhalai, Tripura, India.","08/06/2010: On Friday morning at 0915, in Ratia, Dhalai, Tripura, India, unidentified assailants triggered an improvised explosive device near a group of Border Security Force (BSF) personnel on foot patrol. Two BSF paramilitary troopers, identified as Bajrangi and Arup Das, were killed in the blast. The assailants also fired on the BSF personnel immediately after the blast. The specific motive for the attack is unknown; however, reportedly, the attack was aimed to stall the installation of barbed wire fencing along the Chowmanu-Govindabari border in Dhalai district. No damages were reported and no group claimed responsibility, but it was suspected that militants belonging to Biswamohan Debbarma faction of the National Liberation Front of Tripura (NLFT) were responsible.",Bombing/Explosion
2017,5,26,Jharkhand,Dumri,23.808075,85.763511,The attack took place between Keradari and Barkakana in the Hazaribgah district.,"10/27/2009: On Tuesday evening, between Keradari and Barkakana, Hazaribgah district, Jharkhand, India, suspected Tritiya Prastuti Committee (TPC) militants abducted a government official, Nirmal Toppo, a circle officer of Keredari block (administrative division) and his driver, later freeing the driver. There was no motive or damage reported and no group claimed responsibility.",Hostage Taking (Kidnapping)
2017,5,8,Nagaland,Duncan Basti,25.912371,93.704608,,"11/27/2013: Assailants ambushed a Central Reserve Police Forces (CRPF) road opening party in Bijapur district, Chhattisgarh state, India. After detonating an explosive device, the attackers opened fire. At least four CRPF personnel were killed and three more were injured in the attack. No group claimed responsibility for the incident; however, sources attributed the attack to Maoists.",Bombing/Explosion
2017,6,17,Jammu and Kashmir,Duniwara,34.472236,74.28777,,01/20/2003: A three wheeled taxi loaded with explosives detonated near an Indian army vehicle resulting in one death and one injury inside the Indian Kashmir town of Baramulla. Responsibility for the attack was claimed by Islamic Fateh in a statement to a local news agency.,Bombing/Explosion
2017,10,15,Odisha,Durgapanga,19.715695,83.658781,The incident occurred in the Thangmeiband neighborhood.,"11/06/2015: Assailants planted a grenade during a music concert in Thangmeiband area, Imphal city, Manipur state, India. Bomb experts defused the grenade, and there were no reported casualties. No group claimed responsibility for the incident.",Bombing/Explosion
2017,3,5,Bihar,East Champaran district,26.65,84.9167,,,Armed Assault
2017,2,27,Andhra Pradesh,East Godavari district,17.32125,82.040714,,,Assassination
2017,10,15,Odisha,Entaguda,18.089167,81.545,Garo-khasi range,"06/15/2012: Assailants attacked a former member of the Garo National Liberation Army (GNLA) in Garo Hills, Meghalaya state, India. Sonaram Sangma was shot and killed in his house. The GNLA claimed responsibility for the incident, stating that Sangma was killed for leaving the group.",Armed Assault
2017,2,27,Meghalaya,Era Aning,25.567169,90.525782,"The event occurred along the road in Gaighat, Balaghat district.","04/24/2012: Assailants attacked a construction site camp in Gaighat district, Madhya Pradesh state, India. A construction machine was set on fire and destroyed. Maoists claimed responsibility for the incident, stating that the contractor at the site was a police informant.",Facility/Infrastructure Attack
2017,5,12,Jharkhand,Erla,22.572048,85.460775,,"03/26/2014: Assailants opened fire on police personnel in Dhurki village, Jharkhand state, India. One police officer was wounded in the attack. No group claimed responsibility for the incident; however, sources attributed the attack to Maoists.",Armed Assault
2017,5,16,Bihar,Fatuha,25.516574,85.316635,The incident occurred in the town in Chandel district,"03/19/2016: An explosive device was discovered and defused near an Indian Police Service (IPS) station in Moreh, Chandel district, Manipur, India. No group claimed responsibility for the attack.",Bombing/Explosion
2017,1,12,Maharashtra,Gadchiroli district,19.496873,80.276733,"The attack took place near the Haibargaon Railway Station in Nagaon, Assam, India.","06/27/2008: On Friday evening, at about 1915, in Nagaon, Assam, India, assailants detonated a bomb near Haibargaon Railway station, wounding eight civilians. No group claimed responsibility, but it was widely believed the United Liberation Front of Assam was responsible.",Bombing/Explosion
2017,2,27,Chhattisgarh,Gadiras,18.515368,81.543785,,"09/05/2013: Assailants threw a grenade into the market in Garo Hills area, Megahalaya state, India. No casualties were reported as the grenade failed to detonate. No group claimed responsibility for the incident.",Bombing/Explosion
2017,5,29,Jharkhand,Gagaguro,24.07244,86.81074,,"05/21/2000: National Liberation Front of Tripura (NLFT) rebels attacked the village of Baghber, Tripura, India, in a wave of ethnic violence in the region. The militants used guns and grenades to kill 25 persons and injured several others (unspecified).",Armed Assault
2017,3,6,Manipur,Gaitinkang,24.829728,93.943027,550 km north of State capital Raipur,"07/17/2006: Between four hundred to five hundred Naxalites attacked the government-sponsored relief salwa judum camp in Errabore village of Dantewada district, 550 kilometers (340 miles) north of the state capital Raipur, India, killing at least 25 villagers. Twenty of the victim were axed to death, three were burnt alive and houses were set on fire.",Armed Assault
2017,10,11,Chhattisgarh,Gangaloor,18.771707,81.017838,The attack took place between the Vishunpur and Dhanauti villages in Gaya.,"11/11/2010: On Thursday, between the Vishunpur and Dhanauti villages in Gaya, Bihar, India, in one of two related attacks, around 10 unidentified militants using kerosene set fire to the campaign vehicle of Rajendra Singh, an Independent candidate from Guruwa Assembly constituency. Reportedly, the militants asked the six supporters of Sing to get out of the vehicle before setting it on fire. The attack caused an unreported amount of property damage. No casualties were reported and no group claimed responsibility, but it was suspected that Communist Party of India-Maoist (CPI-M) militants were responsible.",Facility/Infrastructure Attack
2017,6,29,West Bengal,Garirigaon,27.046316,88.271156,"The attack took place at Krishnapur in West Midnapore, West Bengal, India.","04/09/2011: On Saturday, at Krishnapur in West Midnapore, West Bengal, India, unidentified militants attacked a Trinamool Congress (TC) procession with bombs and sharp objects. Three TC activists were injured and twelve persons were arrested in connection with the attack. No group claimed responsibility, but it was suspected that Communist Party of India-Maoist (CPI-M) militants were responsible.",Bombing/Explosion
2017,2,26,Chhattisgarh,Gatan,18.813227,81.579399,,"02/28/2016: Security forces discovered and defused five explosive devices planted inside of Adugre School in Adugre, Meghalaya state, India. Enison Ch. Momin, a Garo National Liberation Army member, was arrested and confessed to planting the explosives.",Bombing/Explosion
2017,2,5,Chhattisgarh,Gatan,18.813227,81.579399,,"08/07/2015: Assailants attempted to extort money from a fuel supplier in Meghalaya state, India. There were no reported casualties. No group claimed responsibility for the incident; however, police officials arrested two individuals in connection with the attack and identified one of them as an Achik Matgrik Elite Force (AMEF) member.",Unknown
2017,6,15,West Bengal,Gayabari,26.862179,88.315791,"The attack took place in Ghatshila, East Singhbhum.","08/17/2010: On Tuesday, in Ghatshila, East Singhbhum, Jharkhand, India, unidentified militants shot and killed contractor D. Pal, suspecting him to be a police informer. No damages were reported and no group claimed responsibility, but it was suspected that Communist Party of India-Maoist (CPI-M) militants were responsible.",Armed Assault
2017,7,15,West Bengal,Gayabari,26.866423,88.310596,,"11/18/2014: Assailants set fire to a Bharatiya Janata Party (BJP) campaign vehicle in Pathgatha village, Jharkhand state, India. There were no reported casualties in the attack. No group claimed responsibility; however, sources attributed the incident to Maoists.",Armed Assault
2017,7,13,West Bengal,Gayabari,26.859013,88.312141,,"05/07/2014: Assailants intercepted a Uranium Corporation of India fuel truck driving in Ghatshila town, Jharkhand state, India. The attackers forced the worker out of the truck and set it on fire. No group claimed responsibility for the incident; however, sources attributed the attack to the Tuddu faction of the Communist Party of India - Maoist (CPI-Maoist).",Facility/Infrastructure Attack
2017,12,7,Uttar Pradesh,Ghatampur,26.1525,80.167778,,,Armed Assault
2017,9,2,Uttar Pradesh,Ghaziabad,28.668653,77.454897,,,Bombing/Explosion
2017,8,2,West Bengal,Ghoom,27.000838,88.243684,,,Armed Assault
2017,5,16,Jharkhand,Giridih district,23.951419,86.1946,,"11/30/2015: An explosive device was discovered and defused in Pratappur, Jharkhand state, India. There were no reported casualties. No group claimed responsibility for the incident; however, sources attributed the attack to the Communist Party of India - Maoist (CPI-Maoist).",Bombing/Explosion
2017,1,25,Jammu and Kashmir,Gofa Bal,34.434195,74.090226,,"08/22/2014: A grenade was discovered and safely defused at a bank in Sopore town, Jammu and Kashmir state, India. No group claimed responsibility for the incident.",Bombing/Explosion
2017,6,18,West Bengal,Goiribus,27.052627,88.466708,,"06/20/2015: An explosive device detonated at God Church School in Kolkata city, West Bengal state, India. One student was injured in the blast. No group claimed responsibility for the incident.",Bombing/Explosion
2017,7,13,West Bengal,Gokul,26.730006,88.412052,"The attack took place in Salboni, West Midnapore.","11/09/2009: On Monday, in Salboni, West Midnapore, West Bengal, India, assailants fired upon and wounded a local leader of the Communist Party of India-Marxist (CPI-M), Jagananth Mahato. No group claimed responsibility, although it was widely believed the Communist Party of India-Maoist (CPI-Maoist) was responsible.",Armed Assault
2017,1,20,Jharkhand,Gomia,23.802869,85.828946,The incident occurred on the Panki-Balumatch road,"08/11/2015: Approximately 300 explosive devices were discovered and defused on Panki-Balumatch road in Khaparmanda-Hoiyo village, Jharkhand state, India. No group claimed responsibility for the incident; however, sources attributed the attempted attack to the Communist Party of India - Maoist (CPI-Maoist).",Bombing/Explosion
2017,3,27,Jharkhand,Gompilla,23.091201,85.254021,"The attack took place in Churanchandpur, Manipur, India.","12/10/2008: On Wednesday, unknown militants abducted three Manipur government officials employed by the Khadi and Village Industries Board in Churanchandpur, Manipur, India. No group claimed responsibility for the attack but Kuki National Front militants are suspected.",Hostage Taking (Kidnapping)
2017,12,15,Chhattisgarh,Gonguda,18.393274,81.663415,The incident occurred in the South Garo Hills district.,"10/27/2015: Assailants abducted Jude Rangku T Sangma, a Block Development Officer, in Diganggre area, South Garo Hills district, Meghalaya state, India. Sangma was released on November 3, 2015. The Garo National Liberation Army claimed responsibility for the incident and demanded that the government halt its ongoing operations against the group in exchange for the release of Jude Rangku T Sangma.",Hostage Taking (Kidnapping)
2017,6,30,Uttar Pradesh,Gopalpur,29.582129,78.12651,The attack took place in the Chengapathar village in Udalguri.,"09/18/2008: On Thursday, the United Liberation Front of Asom (ULFA) militants killed an alleged Army informer, Pramod Baishya, at Chengapathar village under Kalaigaon police station in the Udalguri district.",Armed Assault
2017,3,1,Bihar,Goreya,25.085708,83.935199,The incident occurred in Imphal East district of Manipur.,"03/11/2014: An explosive device detonated near the residential house of a government rice supplier in Khurai area, Imphal East district, Manipur state, India. No one was injured in the blast; however, a nearby car was damaged. No group claimed responsibility for the incident.",Bombing/Explosion
2017,11,16,Assam,Gossaigaon,26.440901,89.977407,The attack occurred on a section of railway track between the Midnapore and Bhadutala stations in the Puturia area near Midnapore.,"04/27/2010: On Tuesday night at 0120, in the Puturia area four miles outside Midnapore, West Bengal, India, suspected Communist Party of India - Maoist (CPI-Maoist) militants detonated a landmine, blowing up a section of railway track between the Midnapore and Bhadutala stations. Train services on the Midnapur-Adra section of South Eastern Railway were affected by the blast and normalcy could be restored only at 0915. The driver of the train found a second landmine planted on the tracks and alerted the police around 0230. The second landmine was safely defused. No casualties resulted in either attack. The specific motive for the attack is unknown; however, a 48-hour bandh had been called by the Maoists in West Bengal, Jharkhand and Orissa in support of the demand to produce four of their arrested cadres at a court. The cadres were reportedly arrested from the Lalgarh region of Paschim Medinipur district two weeks back. No group claimed responsibility for the attack.",Bombing/Explosion
2017,3,18,Jharkhand,Gowasarey,24.490518,83.936317,The incident took place in Imphal West district.,"02/28/2014: An explosive device, targeting Assam Rifles personnel, detonated outside a restaurant in Langthabal Kunja village, Imphal West district, Manipur state, India. One civilian was injured in the blast. No group claimed responsibility for the incident.",Bombing/Explosion
2017,9,26,Chhattisgarh,Gudabeda,19.912982,80.986352,,,Armed Assault
2017,4,17,Chhattisgarh,Gudase,18.752064,81.658316,,"12/15/2016: Assailants threw an explosive device at the house of Chandra Basak Biswas, a Trinamool Congress councilor, in Gangarampur, West Bengal, India. There were no reported casualties in the attack. No group claimed responsibility for the incident.",Assassination
2017,12,22,Andhra Pradesh,Gudem Kotha Veedhi,17.862932,82.197868,The attack took place in the Enayetpur area of Midnapore.,"09/21/2009: On Monday night, in the Enayetpur area of West Midnapore, West Bengal, India, assailants attacked a Communist Party of India- Marxist office, causing a five-hour gun battle, resulting in 15 deaths. The Communist Party of India - Maoist (CPI-Maoist) were responsible for the attack, and attacked the office after the news of the murder of two women villagers, who died in firing from CPI(M) cadres.",Armed Assault
2017,5,18,Jammu and Kashmir,Gudoora,33.913165,74.896049,,"09/15/2000: During late night 09/15/2000, militants detonated an improvised explosive device (IED) in Fazlabad village, Surankote District, while an Indian Army patrol was passing by. The explosion killed one Indian soldier, and injured another. The Indian Army immediately sealed off the area and searched the village for militants, but the militants were able to escape capture.",Bombing/Explosion
